[
  {
    "number": 1,
    "GBCode": "44030552001320022309",
    "cameraName": "171世界之窗人行道1-人脸",
    "primaryDirectory": "沙河派出所",
    "secondaryDirectory": null,
    "cameraType": "一类点",
    "longitude": 113.9710287034,
    "latitude": 22.5388281589,
    "height": 7.90,
    "remarks": "注册视频",
    "status": "0"
  },
  {
    "number": 2,
    "GBCode": "44030552001320122309",
    "cameraName": "171世界之窗人行道2人脸",
    "primaryDirectory": "沙河派出所",
    "secondaryDirectory": null,
    "cameraType": "一类点",
    "longitude": 113.9710378246,
    "latitude": 22.5388735711,
    "height": 8.117,
    "remarks": "注册视频",
    "status": "0"
  },
  {
    "number": 3,
    "GBCode": "44030552701320032165",
    "cameraName": "世界之窗大门便利店顶部（西）",
    "primaryDirectory": "沙河派出所",
    "secondaryDirectory": null,
    "cameraType": "一类点",
    "longitude": 113.96975904,
    "latitude": 22.538927841,
    "height": 8.016,
    "remarks": "暂未注册",
    "status": "2"
  },
  {
    "number": 4,
    "GBCode": "44030552001320022307",
    "cameraName": "世界之窗滑雪场-1",
    "primaryDirectory": "沙河派出所",
    "secondaryDirectory": null,
    "cameraType": "一类点",
    "longitude": 113.9678749653,
    "latitude": 22.5377669653,
    "height": 6,
    "remarks": "注册视频",
    "status": "0"
  },
  {
    "number": 5,
    "GBCode": "44030552001320122307",
    "cameraName": "世界之窗滑雪场-2",
    "primaryDirectory": "沙河派出所",
    "secondaryDirectory": null,
    "cameraType": "一类点",
    "longitude": 113.9678749653,
    "latitude": 22.5377669653,
    "height": 6,
    "remarks": "注册视频",
    "status": "0"
  },
  {
    "number": 6,
    "GBCode": "44030552001320122306",
    "cameraName": "世界之窗检票口2",
    "primaryDirectory": "沙河派出所",
    "secondaryDirectory": null,
    "cameraType": "一类点",
    "longitude": 113.970038254,
    "latitude": 22.538064471,
    "height": 12.12199099,
    "remarks": "暂未注册",
    "status": "0"
  },
  {
    "number": 7,
    "GBCode": "44030552001320222306",
    "cameraName": "世界之窗检票口3",
    "primaryDirectory": "沙河派出所",
    "secondaryDirectory": null,
    "cameraType": "一类点",
    "longitude": 113.9700918983,
    "latitude": 22.5380197675,
    "height": 12.1118871,
    "remarks": "暂未注册",
    "status": "0"
  },
  {
    "number": 8,
    "GBCode": "44030552001320122308",
    "cameraName": "世界之窗金字塔地铁站入口-1人脸",
    "primaryDirectory": "沙河派出所",
    "secondaryDirectory": null,
    "cameraType": "一类点",
    "longitude": 113.97030691,
    "latitude": 22.538996841,
    "height": 7.96312897,
    "remarks": "暂未注册",
    "status": "0"
  },
  {
    "number": 9,
    "GBCode": "44030552001320322308",
    "cameraName": "世界之窗金字塔出口2",
    "primaryDirectory": "沙河派出所",
    "secondaryDirectory": null,
    "cameraType": "一类点",
    "longitude": 113.9702587617,
    "latitude": 22.5389240509,
    "height": 7.88372061,
    "remarks": "暂未注册",
    "status": "2"
  },
  {
    "number": 10,
    "GBCode": "44030552001320222308",
    "cameraName": "世界之窗金字塔内阶梯",
    "primaryDirectory": "沙河派出所",
    "secondaryDirectory": null,
    "cameraType": "一类点",
    "longitude": 113.970202167,
    "latitude": 22.5389674828,
    "height": 7.91492726,
    "remarks": "暂未注册",
    "status": "0"
  },
  {
    "number": 11,
    "GBCode": "44030552001310002246",
    "cameraName": "246深海大道北侧世界之",
    "primaryDirectory": "沙河派出所",
    "secondaryDirectory": null,
    "cameraType": "一类点",
    "longitude": 113.96780832,
    "latitude": 22.540684926,
    "height": 2.94297892,
    "remarks": "暂未注册",
    "status": "0"
  },
  {
    "number": 12,
    "GBCode": "44030552001320032246",
    "cameraName": "深海大道北侧世界之窗2号站台",
    "primaryDirectory": "沙河派出所",
    "secondaryDirectory": null,
    "cameraType": "一类点",
    "longitude": 113.9677520154,
    "latitude": 22.5407224631,
    "height": 2.92575914,
    "remarks": "注册视频",
    "status": "3"
  },
  {
    "number": 13,
    "GBCode": "44030552001310000160",
    "cameraName": "世界之窗酒吧街良缘餐厅门顶",
    "primaryDirectory": "沙河派出所",
    "secondaryDirectory": null,
    "cameraType": "三类点",
    "longitude": 113.96803169,
    "latitude": 22.538766909,
    "height": 8.04165788,
    "remarks": "注册视频",
    "status": "2"
  },
  {
    "number": 14,
    "GBCode": "44030552001320002321",
    "cameraName": "世界之窗大门西塔楼",
    "primaryDirectory": "南山制高点",
    "secondaryDirectory": "沙河所制高点",
    "cameraType": "高空点",
    "longitude": 113.96977298314195,
    "latitude": 22.538382523802976,
    "height": 14.86541025,
    "remarks": "注册视频",
    "status": "0"
  },
  {
    "number": 15,
    "GBCode": "44030552001320002221",
    "cameraName": "威斯汀酒店（新）",
    "primaryDirectory": "南山制高点",
    "secondaryDirectory": "沙河所制高点",
    "cameraType": "高空点",
    "longitude": 113.970204038803,
    "latitude": 22.5403827377687,
    "height": 23.65064172,
    "remarks": "注册视频",
    "status": "0"
  },
  {
    "number": 16,
    "GBCode": "44030552701320002166",
    "cameraName": "166世界之窗大门便利店顶部东",
    "primaryDirectory": "南山制高点",
    "secondaryDirectory": "沙河所制高点",
    "cameraType": "高空点",
    "longitude": 113.9706414539,
    "latitude": 22.5386891287,
    "height": 8.08347197,
    "remarks": "注册视频",
    "status": "2"
  },
  {
    "number": 17,
    "GBCode": "44030552001320012444",
    "cameraName": "444深南大道东往西世界之窗地铁站B口向东车牌",
    "primaryDirectory": "南山平安城市",
    "secondaryDirectory": "沙河所",
    "cameraType": "一类点",
    "longitude": 113.9681024,
    "latitude": 22.54074995,
    "height": 5.46257439,
    "remarks": "注册视频",
    "status": "0"
  },
  {
    "number": 18,
    "GBCode": "44030552001320002444",
    "cameraName": "444深南大道东往西世界之窗地铁站B口向东球机",
    "primaryDirectory": "南山平安城市",
    "secondaryDirectory": "沙河所",
    "cameraType": "一类点",
    "longitude": 113.9681024,
    "latitude": 22.54074995,
    "height": 5.46257439,
    "remarks": "注册视频",
    "status": "0"
  },
  {
    "number": 19,
    "GBCode": "44030552001320022444",
    "cameraName": "444深南大道东往西世界之窗地铁站B口向东人脸",
    "primaryDirectory": "南山平安城市",
    "secondaryDirectory": "沙河所",
    "cameraType": "一类点",
    "longitude": 113.9681024,
    "latitude": 22.54074995,
    "height": 5.46257439,
    "remarks": "注册视频",
    "status": "0"
  },
  {
    "number": 20,
    "GBCode": "44030552001320122338",
    "cameraName": "338深南大道世界之窗地铁K出口车牌",
    "primaryDirectory": "南山公交站台",
    "secondaryDirectory": "沙河所公交",
    "cameraType": "一类点",
    "longitude": 113.9696324554,
    "latitude": 22.5393337682,
    "height": 6.30260899,
    "remarks": "注册视频",
    "status": "0"
  },
  {
    "number": 21,
    "GBCode": "44030552001320002338",
    "cameraName": "338深南大道世界之窗地铁K出口球机",
    "primaryDirectory": "南山公交站台",
    "secondaryDirectory": "沙河所公交",
    "cameraType": "一类点",
    "longitude": 113.9696324554,
    "latitude": 22.5393337682,
    "height": 6.302609,
    "remarks": "注册视频",
    "status": "0"
  },
  {
    "number": 22,
    "GBCode": "44030552001320022338",
    "cameraName": "338深南大道世界之窗地铁K出口人脸1",
    "primaryDirectory": "南山公交站台",
    "secondaryDirectory": "沙河所公交",
    "cameraType": "一类点",
    "longitude": 113.9696324554,
    "latitude": 22.5393337682,
    "height": 6.302609,
    "remarks": "注册视频",
    "status": "0"
  },
  {
    "number": 23,
    "GBCode": "44030552001320122338",
    "cameraName": "338深南大道世界之窗地铁K出口人脸2",
    "primaryDirectory": "南山公交站台",
    "secondaryDirectory": "沙河所公交",
    "cameraType": "一类点",
    "longitude": 113.9696324554,
    "latitude": 22.5393337682,
    "height": 6.30260899,
    "remarks": "注册视频",
    "status": "0"
  },
  {
    "number": 24,
    "GBCode": "44030552001320002162",
    "cameraName": "162世界之窗停车场西段游乐场东角球机",
    "primaryDirectory": "南山公交站台",
    "secondaryDirectory": "沙河所公交",
    "cameraType": "一类点",
    "longitude": 113.9781806,
    "latitude": 22.54333889,
    "height": 6,
    "remarks": "注册视频",
    "status": "0"
  },
  {
    "number": 25,
    "GBCode": "44030552001320002163",
    "cameraName": "163世界之窗停车场西头球机",
    "primaryDirectory": "南山公交站台",
    "secondaryDirectory": "沙河所公交",
    "cameraType": "一类点",
    "longitude": 113.9776222,
    "latitude": 22.54333889,
    "height": 6,
    "remarks": "注册视频",
    "status": "0"
  },
  {
    "number": 26,
    "GBCode": "44030552001320012167",
    "cameraName": "167深南大道南侧世界之窗停车场外车牌",
    "primaryDirectory": "南山公交站台",
    "secondaryDirectory": "沙河所公交",
    "cameraType": "一类点",
    "longitude": 113.9766528,
    "latitude": 22.54408889,
    "height": 6,
    "remarks": "注册视频",
    "status": "0"
  },
  {
    "number": 27,
    "GBCode": "44030552001320002168",
    "cameraName": "168深南大道南侧世界之窗2号站台旁球机",
    "primaryDirectory": "南山公交站台",
    "secondaryDirectory": "沙河所公交",
    "cameraType": "一类点",
    "longitude": 113.9678113018,
    "latitude": 22.5400349346,
    "height": 6,
    "remarks": "注册视频",
    "status": "0"
  },
  {
    "number": 28,
    "GBCode": "44030552001320002169",
    "cameraName": "169深南大道南侧世界之窗中门路口球机",
    "primaryDirectory": "南山公交站台",
    "secondaryDirectory": "沙河所公交",
    "cameraType": "一类点",
    "longitude": 113.9680724608,
    "latitude": 22.5398951588,
    "height": 4.06195322,
    "remarks": "注册视频",
    "status": "0"
  },
  {
    "number": 29,
    "GBCode": "44030552001320002170",
    "cameraName": "170世界之窗1号站台后绿化带球机",
    "primaryDirectory": "南山公交站台",
    "secondaryDirectory": "沙河所公交",
    "cameraType": "一类点",
    "longitude": 113.9721738992,
    "latitude": 22.5384437329,
    "height": 11.51,
    "remarks": "注册视频",
    "status": "0"
  },
  {
    "number": 30,
    "GBCode": "44030552001320002171",
    "cameraName": "171深南大道南侧世界之窗旁红绿灯球机",
    "primaryDirectory": "南山公交站台",
    "secondaryDirectory": "沙河所公交",
    "cameraType": "一类点",
    "longitude": 113.9711418312,
    "latitude": 22.5387764433,
    "height": 6,
    "remarks": "注册视频",
    "status": "0"
  },
  {
    "number": 31,
    "GBCode": "44030552001320002167",
    "cameraName": "167深南大道南侧世界之窗停车场外球机",
    "primaryDirectory": "南山公交站台",
    "secondaryDirectory": "沙河所公交",
    "cameraType": "一类点",
    "longitude": 113.9766528,
    "latitude": 22.54408889,
    "height": 6,
    "remarks": "注册视频",
    "status": "0"
  },
  {
    "number": 32,
    "GBCode": "44030552001320022168",
    "cameraName": "168深南大道南侧世界之窗2号站台旁人脸",
    "primaryDirectory": "南山公交站台",
    "secondaryDirectory": "沙河所公交",
    "cameraType": "一类点",
    "longitude": 113.9678113018,
    "latitude": 22.5400349346,
    "height": 6,
    "remarks": "注册视频",
    "status": "0"
  },
  {
    "number": 33,
    "GBCode": "44030552001320022169",
    "cameraName": "169深南大道南侧世界之窗中门路口人脸",
    "primaryDirectory": "南山公交站台",
    "secondaryDirectory": "沙河所公交",
    "cameraType": "一类点",
    "longitude": 113.9680724608,
    "latitude": 22.5398951588,
    "height": 4.09510882,
    "remarks": "注册视频",
    "status": "0"
  },
  {
    "number": 34,
    "GBCode": "44030552001320022170",
    "cameraName": "170世界之窗1号站台后绿化带人脸",
    "primaryDirectory": "南山公交站台",
    "secondaryDirectory": "沙河所公交",
    "cameraType": "一类点",
    "longitude": 113.9721738992,
    "latitude": 22.5384437329,
    "height": 6,
    "remarks": "注册视频",
    "status": "0"
  },
  {
    "number": 35,
    "GBCode": "44030552001320022171",
    "cameraName": "171深南大道南侧世界之窗旁红绿灯人脸",
    "primaryDirectory": "南山公交站台",
    "secondaryDirectory": "沙河所公交",
    "cameraType": "一类点",
    "longitude": 113.9711418312,
    "latitude": 22.5387764433,
    "height": 7.83166064,
    "remarks": "注册视频",
    "status": "0"
  },
  {
    "number": 36,
    "GBCode": "44030552001320002159",
    "cameraName": "159世界之窗酒吧街良缘餐厅门顶球机",
    "primaryDirectory": "南山公交站台",
    "secondaryDirectory": "沙河所公交",
    "cameraType": "一类点",
    "longitude": 113.9683663021,
    "latitude": 22.5386527843,
    "height": 8.10550437,
    "remarks": "注册视频",
    "status": "0"
  },
  {
    "number": 37,
    "GBCode": "44030552001320012161",
    "cameraName": "161世界之窗酒吧街面阿尔卑斯门口车牌",
    "primaryDirectory": "南山公交站台",
    "secondaryDirectory": "沙河所公交",
    "cameraType": "一类点",
    "longitude": 113.9677693793,
    "latitude": 22.5377798942,
    "height": 6,
    "remarks": "注册视频",
    "status": "0"
  },
  {
    "number": 38,
    "GBCode": "44030552001320012164",
    "cameraName": "164世界之窗停车场东段地铁I出口车牌",
    "primaryDirectory": "南山公交站台",
    "secondaryDirectory": "沙河所公交",
    "cameraType": "一类点",
    "longitude": 113.9801111,
    "latitude": 22.54279722,
    "height": 6,
    "remarks": "注册视频",
    "status": "0"
  },
  {
    "number": 39,
    "GBCode": "44030552001320002164",
    "cameraName": "164世界之窗停车场东段地铁I出口球机",
    "primaryDirectory": "南山公交站台",
    "secondaryDirectory": "沙河所公交",
    "cameraType": "一类点",
    "longitude": 113.9801111,
    "latitude": 22.54279722,
    "height": 6,
    "remarks": "注册视频",
    "status": "0"
  },
  {
    "number": 40,
    "GBCode": "44030552001320022164",
    "cameraName": "164世界之窗停车场东段地铁I出口人脸",
    "primaryDirectory": "南山公交站台",
    "secondaryDirectory": "沙河所公交",
    "cameraType": "一类点",
    "longitude": 113.9801111,
    "latitude": 22.54279722,
    "height": 6,
    "remarks": "注册视频",
    "status": "0"
  },
  {
    "number": 41,
    "GBCode": "44030552001320022167",
    "cameraName": "167深南大道南侧世界之窗停车场外人脸",
    "primaryDirectory": "南山公交站台",
    "secondaryDirectory": "沙河所公交",
    "cameraType": "一类点",
    "longitude": 113.9766528,
    "latitude": 22.54408889,
    "height": 6,
    "remarks": "注册视频",
    "status": "0"
  },
  {
    "number": 42,
    "GBCode": "44030552001320012168",
    "cameraName": "168深南大道南侧世界之窗2号站台旁车牌",
    "primaryDirectory": "南山公交站台",
    "secondaryDirectory": "沙河所公交",
    "cameraType": "一类点",
    "longitude": 113.9678113018,
    "latitude": 22.5400349346,
    "height": 6,
    "remarks": "注册视频",
    "status": "0"
  },
  {
    "number": 43,
    "GBCode": "44030552001320012169",
    "cameraName": "169深南大道南侧世界之窗中门路口车牌",
    "primaryDirectory": "南山公交站台",
    "secondaryDirectory": "沙河所公交",
    "cameraType": "一类点",
    "longitude": 113.9680724608,
    "latitude": 22.5398951588,
    "height": 4.09408432,
    "remarks": "注册视频",
    "status": "0"
  },
  {
    "number": 44,
    "GBCode": "44030552001320012170",
    "cameraName": "170世界之窗1号站台后绿化带车牌",
    "primaryDirectory": "南山公交站台",
    "secondaryDirectory": "沙河所公交",
    "cameraType": "一类点",
    "longitude": 113.9721738992,
    "latitude": 22.5384437329,
    "height": 6,
    "remarks": "注册视频",
    "status": "0"
  },
  {
    "number": 45,
    "GBCode": "44030552001320012171",
    "cameraName": "171深南大道南侧世界之窗旁红绿灯车牌",
    "primaryDirectory": "南山公交站台",
    "secondaryDirectory": "沙河所公交",
    "cameraType": "一类点",
    "longitude": 113.9711418312,
    "latitude": 22.5387764433,
    "height": 7.83166064,
    "remarks": "注册视频",
    "status": "0"
  },
  {
    "number": 46,
    "GBCode": "44030552001320012068",
    "cameraName": "068深南大道东往西世界之窗地铁站C出口车牌",
    "primaryDirectory": "南山改造项目",
    "secondaryDirectory": "沙河所",
    "cameraType": "一类点",
    "longitude": 113.9683805621,
    "latitude": 22.5404818953,
    "height": 3.69642303,
    "remarks": "暂未注册",
    "status": "2"
  },
  {
    "number": 47,
    "GBCode": "44030552001310002068",
    "cameraName": "068深南大道东往西世界之窗地铁站C出口球机",
    "primaryDirectory": "南山改造项目",
    "secondaryDirectory": "沙河所",
    "cameraType": "一类点",
    "longitude": 113.9683805621,
    "latitude": 22.5404818953,
    "height": 3.14257714,
    "remarks": "暂未注册",
    "status": "2"
  },
  {
    "number": 48,
    "GBCode": "44030552001320022068",
    "cameraName": "068深南大道东往西世界之窗地铁站C出口人脸",
    "primaryDirectory": "南山改造项目",
    "secondaryDirectory": "沙河所",
    "cameraType": "一类点",
    "longitude": 113.9683805621,
    "latitude": 22.5404818953,
    "height": 3.19152354,
    "remarks": "暂未注册",
    "status": "2"
  },
  {
    "number": 49,
    "GBCode": "44030552001320022064",
    "cameraName": "064侨城西街东往西223世界之窗公交车站出口人脸",
    "primaryDirectory": "南山改造项目",
    "secondaryDirectory": "沙河所",
    "cameraType": "一类点",
    "longitude": 113.9716871951,
    "latitude": 22.5401515931,
    "height": 9.81453669,
    "remarks": "注册视频",
    "status": "2"
  },
  {
    "number": 50,
    "GBCode": "44030552001320032064",
    "cameraName": "064侨城西街东往西223世界之窗公交车站出口治安枪机",
    "primaryDirectory": "南山改造项目",
    "secondaryDirectory": "沙河所",
    "cameraType": "一类点",
    "longitude": 113.9604234075,
    "latitude": 22.5372207818,
    "height": 6,
    "remarks": "暂未注册",
    "status": "2"
  },
  {
    "number": 51,
    "GBCode": "44030552001320012066",
    "cameraName": "066深南大道西往东世界之窗I出口车牌",
    "primaryDirectory": "南山改造项目",
    "secondaryDirectory": "沙河所",
    "cameraType": "一类点",
    "longitude": 113.9690455863,
    "latitude": 22.5395444998,
    "height": 11.51,
    "remarks": "暂未注册",
    "status": "2"
  },
  {
    "number": 52,
    "GBCode": "44030552001320022066",
    "cameraName": "066深南大道西往东世界之窗I出口人脸1",
    "primaryDirectory": "南山改造项目",
    "secondaryDirectory": "沙河所",
    "cameraType": "一类点",
    "longitude": 113.9690455863,
    "latitude": 22.5395444998,
    "height": 11.51,
    "remarks": "暂未注册",
    "status": "2"
  },
  {
    "number": 53,
    "GBCode": "44030552001320122066",
    "cameraName": "066深南大道西往东世界之窗I出口人脸2",
    "primaryDirectory": "南山改造项目",
    "secondaryDirectory": "沙河所",
    "cameraType": "一类点",
    "longitude": 113.9690455863,
    "latitude": 22.5395444998,
    "height": 11.51,
    "remarks": "暂未注册",
    "status": "2"
  },
  {
    "number": 54,
    "GBCode": "44030552001320002067",
    "cameraName": "67深南大道东往西世界之窗公交车站球机",
    "primaryDirectory": "南山改造项目",
    "secondaryDirectory": "沙河所",
    "cameraType": "一类点",
    "longitude": 113.97065159,
    "latitude": 22.539643233,
    "height": 11.51,
    "remarks": "注册视频",
    "status": "0"
  },
  {
    "number": 55,
    "GBCode": "44030552001320022114",
    "cameraName": "114深南大道西往东世界之窗停车场人脸",
    "primaryDirectory": "南山改造项目",
    "secondaryDirectory": "沙河所",
    "cameraType": "一类点",
    "longitude": 113.96765216,
    "latitude": 22.539661841,
    "height": 11.51,
    "remarks": "暂未注册",
    "status": "2"
  },
  {
    "number": 56,
    "GBCode": "44030552001310002114",
    "cameraName": "114世界之窗停车场球机",
    "primaryDirectory": "南山改造项目",
    "secondaryDirectory": "沙河所",
    "cameraType": "三类点",
    "longitude": 113.96765216,
    "latitude": 22.539661841,
    "height": 11.51,
    "remarks": "暂未注册",
    "status": "2"
  },
  {
    "number": 57,
    "GBCode": "44030552001310002064",
    "cameraName": "064侨城西街223世界之窗公交车站出口球机",
    "primaryDirectory": "南山改造项目",
    "secondaryDirectory": "沙河所",
    "cameraType": "三类点",
    "longitude": 113.9716871951,
    "latitude": 22.5401515931,
    "height": 11.51,
    "remarks": "注册视频",
    "status": "0"
  },
  {
    "number": 58,
    "GBCode": "44030552001310002066",
    "cameraName": "066深南大道南侧世界之窗I出口球机",
    "primaryDirectory": "南山改造项目",
    "secondaryDirectory": "沙河所",
    "cameraType": "三类点",
    "longitude": 113.9690455863,
    "latitude": 22.5395444998,
    "height": 11.51,
    "remarks": "注册视频",
    "status": "0"
  },
  {
    "number": 59,
    "GBCode": "44030552001320022067",
    "cameraName": "067深南大道东往西世界之窗公交车站人脸",
    "primaryDirectory": "南山改造项目",
    "secondaryDirectory": "沙河所",
    "cameraType": "一类点",
    "longitude": 113.9592404948,
    "latitude": 22.5367204108,
    "height": 11.51,
    "remarks": "注册视频",
    "status": "0"
  },
  {
    "number": 60,
    "GBCode": "44030552001320032067",
    "cameraName": "067深南大道东往西世界之窗公交车站治安枪机",
    "primaryDirectory": "南山改造项目",
    "secondaryDirectory": "沙河所",
    "cameraType": "一类点",
    "longitude": 113.9592404948,
    "latitude": 22.5367204108,
    "height": 11.51,
    "remarks": "注册视频",
    "status": "0"
  },
  {
    "number": 61,
    "GBCode": "44030552001310002111",
    "cameraName": "111世界之窗大门西塔楼顶",
    "primaryDirectory": "南山改造项目",
    "secondaryDirectory": "沙河所",
    "cameraType": "三类点",
    "longitude": 113.96997037,
    "latitude": 22.538241866,
    "height": 11.51,
    "remarks": "注册视频",
    "status": "2"
  },
  {
    "number": 62,
    "GBCode": "44030552001320099003",
    "cameraName": "世界之窗（益田假日广场正对世界之窗位置）",
    "primaryDirectory": "南山云防",
    "secondaryDirectory": null,
    "cameraType": "一类点",
    "longitude": 113.97013703,
    "latitude": 22.540386982,
    "height": 11.51,
    "remarks": "暂未注册",
    "status": "2"
  },
  {
    "number": 63,
    "GBCode": "44039601001320152010",
    "cameraName": "站台1号线A端屏蔽门控制室外32（球机）",
    "primaryDirectory": "公交分局高清镜头",
    "secondaryDirectory": "地铁一号线15.世界之窗站",
    "cameraType": "一类点",
    "longitude": 113.9694024,
    "latitude": 22.53977703,
    "height": 11.51,
    "remarks": "注册视频",
    "status": "0"
  },
  {
    "number": 64,
    "GBCode": "44039601001320152012",
    "cameraName": "站台1号线B端扶梯旁34（球机）",
    "primaryDirectory": "公交分局高清镜头",
    "secondaryDirectory": "地铁一号线15.世界之窗站",
    "cameraType": "一类点",
    "longitude": 113.9694024,
    "latitude": 22.53977703,
    "height": 11.51,
    "remarks": "注册视频",
    "status": "0"
  },
  {
    "number": 65,
    "GBCode": "44039601001320152013",
    "cameraName": "站台1号线往机场方向35（枪机）",
    "primaryDirectory": "公交分局高清镜头",
    "secondaryDirectory": "地铁一号线15.世界之窗站",
    "cameraType": "一类点",
    "longitude": 113.9694024,
    "latitude": 22.53977703,
    "height": 11.51,
    "remarks": "注册视频",
    "status": "0"
  },
  {
    "number": 66,
    "GBCode": "44039601001320152009",
    "cameraName": "站台1号线往罗湖方向31（枪机）",
    "primaryDirectory": "公交分局高清镜头",
    "secondaryDirectory": "地铁一号线15.世界之窗站",
    "cameraType": "一类点",
    "longitude": 113.9694024,
    "latitude": 22.53977703,
    "height": 11.51,
    "remarks": "注册视频",
    "status": "0"
  },
  {
    "number": 67,
    "GBCode": "44039601001320152011",
    "cameraName": "站台1号线往罗湖方向33（枪机）",
    "primaryDirectory": "公交分局高清镜头",
    "secondaryDirectory": "地铁一号线15.世界之窗站",
    "cameraType": "一类点",
    "longitude": 113.9694024,
    "latitude": 22.53977703,
    "height": 11.51,
    "remarks": "注册视频",
    "status": "0"
  },
  {
    "number": 68,
    "GBCode": "44039601001320152014",
    "cameraName": "站台1号线往罗湖方向36（枪机）",
    "primaryDirectory": "公交分局高清镜头",
    "secondaryDirectory": "地铁一号线15.世界之窗站",
    "cameraType": "一类点",
    "longitude": 113.9694025,
    "latitude": 22.53977704,
    "height": 11.51,
    "remarks": "注册视频",
    "status": "0"
  },
  {
    "number": 69,
    "GBCode": "44039601001320152002",
    "cameraName": "站厅A出口13（枪机）",
    "primaryDirectory": "公交分局高清镜头",
    "secondaryDirectory": "地铁一号线15.世界之窗站",
    "cameraType": "一类点",
    "longitude": 113.9694026,
    "latitude": 22.53977705,
    "height": 11.51,
    "remarks": "注册视频",
    "status": "0"
  },
  {
    "number": 70,
    "GBCode": "44039601001320154001",
    "cameraName": "站厅A端出闸机旁20（鹰眼）",
    "primaryDirectory": "公交分局高清镜头",
    "secondaryDirectory": "地铁一号线15.世界之窗站",
    "cameraType": "一类点",
    "longitude": 113.9694027,
    "latitude": 22.53977706,
    "height": 11.51,
    "remarks": "注册视频",
    "status": "0"
  },
  {
    "number": 71,
    "GBCode": "44039601001320154002",
    "cameraName": "站厅A端进闸机旁21（鹰眼）",
    "primaryDirectory": "公交分局高清镜头",
    "secondaryDirectory": "地铁一号线15.世界之窗站",
    "cameraType": "一类点",
    "longitude": 113.9694028,
    "latitude": 22.53977707,
    "height": 11.51,
    "remarks": "注册视频",
    "status": "0"
  },
  {
    "number": 72,
    "GBCode": "44039601001320154003",
    "cameraName": "站厅A端客服中心换乘2号线扶梯旁22（鹰眼）",
    "primaryDirectory": "公交分局高清镜头",
    "secondaryDirectory": "地铁一号线15.世界之窗站",
    "cameraType": "一类点",
    "longitude": 113.9694029,
    "latitude": 22.53977708,
    "height": 11.51,
    "remarks": "注册视频",
    "status": "0"
  },
  {
    "number": 73,
    "GBCode": "44039601001320153001",
    "cameraName": "站厅A口客服中心旁闸机照出01（人脸）",
    "primaryDirectory": "公交分局高清镜头",
    "secondaryDirectory": "地铁一号线15.世界之窗站",
    "cameraType": "一类点",
    "longitude": 113.969403,
    "latitude": 22.53977709,
    "height": 11.51,
    "remarks": "注册视频",
    "status": "0"
  },
  {
    "number": 74,
    "GBCode": "44039601001320153002",
    "cameraName": "站厅A口客服中心旁闸机照出02（人脸）",
    "primaryDirectory": "公交分局高清镜头",
    "secondaryDirectory": "地铁一号线15.世界之窗站",
    "cameraType": "一类点",
    "longitude": 113.9694031,
    "latitude": 22.5397771,
    "height": 11.51,
    "remarks": "注册视频",
    "status": "0"
  },
  {
    "number": 75,
    "GBCode": "44039601001320152003",
    "cameraName": "站厅A口客服中心闸机旁14（球机）",
    "primaryDirectory": "公交分局高清镜头",
    "secondaryDirectory": "地铁一号线15.世界之窗站",
    "cameraType": "一类点",
    "longitude": 113.9694032,
    "latitude": 22.53977711,
    "height": 11.51,
    "remarks": "注册视频",
    "status": "0"
  },
  {
    "number": 76,
    "GBCode": "44039601001320152005",
    "cameraName": "站厅B出口16（枪机）",
    "primaryDirectory": "公交分局高清镜头",
    "secondaryDirectory": "地铁一号线15.世界之窗站",
    "cameraType": "一类点",
    "longitude": 113.9694033,
    "latitude": 22.53977712,
    "height": 11.51,
    "remarks": "注册视频",
    "status": "0"
  },
  {
    "number": 77,
    "GBCode": "44039601001320152006",
    "cameraName": "站厅B端公安值班室外17（球机）",
    "primaryDirectory": "公交分局高清镜头",
    "secondaryDirectory": "地铁一号线15.世界之窗站",
    "cameraType": "一类点",
    "longitude": 113.9694034,
    "latitude": 22.53977713,
    "height": 11.51,
    "remarks": "注册视频",
    "status": "0"
  },
  {
    "number": 78,
    "GBCode": "44039601001320154004",
    "cameraName": "站厅B端客服中心换乘1号线扶梯旁23（鹰眼）",
    "primaryDirectory": "公交分局高清镜头",
    "secondaryDirectory": "地铁一号线15.世界之窗站",
    "cameraType": "一类点",
    "longitude": 113.9694035,
    "latitude": 22.53977714,
    "height": 11.51,
    "remarks": "注册视频",
    "status": "0"
  },
  {
    "number": 79,
    "GBCode": "44039601001320152007",
    "cameraName": "站厅I出口旁18（枪机）",
    "primaryDirectory": "公交分局高清镜头",
    "secondaryDirectory": "地铁一号线15.世界之窗站",
    "cameraType": "一类点",
    "longitude": 113.9694036,
    "latitude": 22.53977715,
    "height": 11.51,
    "remarks": "注册视频",
    "status": "0"
  },
  {
    "number": 80,
    "GBCode": "44039601001320152001",
    "cameraName": "站厅J口票务问询处旁12（枪机）",
    "primaryDirectory": "公交分局高清镜头",
    "secondaryDirectory": "地铁一号线15.世界之窗站",
    "cameraType": "一类点",
    "longitude": 113.9694037,
    "latitude": 22.53977716,
    "height": 11.51,
    "remarks": "注册视频",
    "status": "0"
  },
  {
    "number": 81,
    "GBCode": "44039601001320153009",
    "cameraName": "站厅J口票务问询处旁闸机照出09（人脸）",
    "primaryDirectory": "公交分局高清镜头",
    "secondaryDirectory": "地铁一号线15.世界之窗站",
    "cameraType": "一类点",
    "longitude": 113.9694024,
    "latitude": 22.53977703,
    "height": 11.51,
    "remarks": "注册视频",
    "status": "0"
  },
  {
    "number": 82,
    "GBCode": "44039601001320153010",
    "cameraName": "站厅J口票务问询处旁闸机照出10（人脸）",
    "primaryDirectory": "公交分局高清镜头",
    "secondaryDirectory": "地铁一号线15.世界之窗站",
    "cameraType": "一类点",
    "longitude": 113.9694024,
    "latitude": 22.53977703,
    "height": 11.51,
    "remarks": "注册视频",
    "status": "0"
  },
  {
    "number": 83,
    "GBCode": "44039601001320153011",
    "cameraName": "站厅J口票务问询处旁闸机照出11（人脸）",
    "primaryDirectory": "公交分局高清镜头",
    "secondaryDirectory": "地铁一号线15.世界之窗站",
    "cameraType": "一类点",
    "longitude": 113.9694024,
    "latitude": 22.53977703,
    "height": 11.51,
    "remarks": "注册视频",
    "status": "0"
  },
  {
    "number": 84,
    "GBCode": "44039601001320152008",
    "cameraName": "站厅K出口旁19（球机）",
    "primaryDirectory": "公交分局高清镜头",
    "secondaryDirectory": "地铁一号线15.世界之窗站",
    "cameraType": "一类点",
    "longitude": 113.9694024,
    "latitude": 22.53977703,
    "height": 11.51,
    "remarks": "注册视频",
    "status": "0"
  },
  {
    "number": 85,
    "GBCode": "44039601001320153005",
    "cameraName": "站厅车控室前闸机照出05（人脸）",
    "primaryDirectory": "公交分局高清镜头",
    "secondaryDirectory": "地铁一号线15.世界之窗站",
    "cameraType": "一类点",
    "longitude": 113.9694025,
    "latitude": 22.53977704,
    "height": 11.51,
    "remarks": "注册视频",
    "status": "0"
  },
  {
    "number": 86,
    "GBCode": "44039601001320153006",
    "cameraName": "站厅车控室前闸机照出06（人脸）",
    "primaryDirectory": "公交分局高清镜头",
    "secondaryDirectory": "地铁一号线15.世界之窗站",
    "cameraType": "一类点",
    "longitude": 113.9694026,
    "latitude": 22.53977705,
    "height": 11.51,
    "remarks": "注册视频",
    "status": "0"
  },
  {
    "number": 87,
    "GBCode": "44039601001320153007",
    "cameraName": "站厅车控室前闸机照出07（人脸）",
    "primaryDirectory": "公交分局高清镜头",
    "secondaryDirectory": "地铁一号线15.世界之窗站",
    "cameraType": "一类点",
    "longitude": 113.9694027,
    "latitude": 22.53977706,
    "height": 11.51,
    "remarks": "注册视频",
    "status": "0"
  },
  {
    "number": 88,
    "GBCode": "44039601001320153008",
    "cameraName": "站厅车控室前闸机照出08（人脸）",
    "primaryDirectory": "公交分局高清镜头",
    "secondaryDirectory": "地铁一号线15.世界之窗站",
    "cameraType": "一类点",
    "longitude": 113.9694028,
    "latitude": 22.53977707,
    "height": 11.51,
    "remarks": "注册视频",
    "status": "0"
  },
  {
    "number": 89,
    "GBCode": "44039601001320152004",
    "cameraName": "站厅往益田假日广场出口旁15（枪机）",
    "primaryDirectory": "公交分局高清镜头",
    "secondaryDirectory": "地铁一号线15.世界之窗站",
    "cameraType": "一类点",
    "longitude": 113.9694029,
    "latitude": 22.53977708,
    "height": 11.51,
    "remarks": "注册视频",
    "status": "0"
  },
  {
    "number": 90,
    "GBCode": "44039601001320153003",
    "cameraName": "站厅往益田假日广场闸机照出03（人脸）",
    "primaryDirectory": "公交分局高清镜头",
    "secondaryDirectory": "地铁一号线15.世界之窗站",
    "cameraType": "一类点",
    "longitude": 113.969403,
    "latitude": 22.53977709,
    "height": 11.51,
    "remarks": "注册视频",
    "status": "0"
  },
  {
    "number": 91,
    "GBCode": "44039601001320153004",
    "cameraName": "站厅往益田假日广场闸机照出04（人脸）",
    "primaryDirectory": "公交分局高清镜头",
    "secondaryDirectory": "地铁一号线15.世界之窗站",
    "cameraType": "一类点",
    "longitude": 113.9694031,
    "latitude": 22.5397771,
    "height": 11.51,
    "remarks": "注册视频",
    "status": "0"
  },
  {
    "number": 92,
    "GBCode": "44039602001320122001",
    "cameraName": "站台2号线往赤湾方向24（球机）",
    "primaryDirectory": "公交分局高清镜头",
    "secondaryDirectory": "地铁二号线12.世界之窗站2",
    "cameraType": "一类点",
    "longitude": 113.9694024,
    "latitude": 22.53977703,
    "height": 11.51,
    "remarks": "注册视频",
    "status": "0"
  },
  {
    "number": 93,
    "GBCode": "44039602001320122002",
    "cameraName": "站台2号线往赤湾方向25（球机）",
    "primaryDirectory": "公交分局高清镜头",
    "secondaryDirectory": "地铁二号线12.世界之窗站2",
    "cameraType": "一类点",
    "longitude": 113.9694024,
    "latitude": 22.53977703,
    "height": 11.51,
    "remarks": "注册视频",
    "status": "0"
  },
  {
    "number": 94,
    "GBCode": "44039602001320122003",
    "cameraName": "站台2号线往赤湾方向26（枪机）",
    "primaryDirectory": "公交分局高清镜头",
    "secondaryDirectory": "地铁二号线12.世界之窗站2",
    "cameraType": "一类点",
    "longitude": 113.9694024,
    "latitude": 22.53977703,
    "height": 11.51,
    "remarks": "注册视频",
    "status": "0"
  },
  {
    "number": 95,
    "GBCode": "44039602001320122004",
    "cameraName": "站台2号线往新秀方向27（球机）",
    "primaryDirectory": "公交分局高清镜头",
    "secondaryDirectory": "地铁二号线12.世界之窗站2",
    "cameraType": "一类点",
    "longitude": 113.9694024,
    "latitude": 22.53977703,
    "height": 11.51,
    "remarks": "注册视频",
    "status": "0"
  },
  {
    "number": 96,
    "GBCode": "44039602001320122005",
    "cameraName": "站台2号线往新秀方向28（球机）",
    "primaryDirectory": "公交分局高清镜头",
    "secondaryDirectory": "地铁二号线12.世界之窗站2",
    "cameraType": "一类点",
    "longitude": 113.9694024,
    "latitude": 22.53977703,
    "height": 11.51,
    "remarks": "注册视频",
    "status": "0"
  },
  {
    "number": 97,
    "GBCode": "44039602001320122006",
    "cameraName": "站台2号线往新秀方向29（枪机）",
    "primaryDirectory": "公交分局高清镜头",
    "secondaryDirectory": "地铁二号线12.世界之窗站2",
    "cameraType": "一类点",
    "longitude": 113.9694024,
    "latitude": 22.53977703,
    "height": 11.51,
    "remarks": "注册视频",
    "status": "0"
  },
  {
    "number": 98,
    "GBCode": "44039602001320122007",
    "cameraName": "站台2号线往新秀方向30（球机）",
    "primaryDirectory": "公交分局高清镜头",
    "secondaryDirectory": "地铁二号线12.世界之窗站2",
    "cameraType": "一类点",
    "longitude": 113.9694024,
    "latitude": 22.53977703,
    "height": 11.51,
    "remarks": "注册视频",
    "status": "0"
  },
  {
    "number": 99,
    "GBCode": "44030020041320091312",
    "cameraName": "91312深南世界之窗（球机）",
    "primaryDirectory": "交通警察支队",
    "secondaryDirectory": "福田大队",
    "cameraType": "一类点",
    "longitude": 113.9710453936,
    "latitude": 22.5402749264,
    "height": 11.51,
    "remarks": "注册视频",
    "status": "2"
  },
  {
    "number": 100,
    "GBCode": "44030552001320002338",
    "cameraName": "91313深南世界之窗（全景）",
    "primaryDirectory": "交通警察支队",
    "secondaryDirectory": "福田大队",
    "cameraType": "一类点",
    "longitude": 113.971018061,
    "latitude": 22.5402755206,
    "height": 11.51,
    "remarks": "注册视频",
    "status": "0"
  }
]